{"type":"FeatureCollection","features":[{"type":"Feature","properties":{"Place":"Bangalore Palace"},"geometry":{"type":"Point","coordinates":[77.5890953,13.0035068]}},{"type":"Feature","properties":{"Place":"Tipu Sultan's Summer Palace"},"geometry":{"type":"Point","coordinates":[77.5736415,12.9593513]}},{"type":"Feature","properties":{"Place":"Lal Bagh"},"geometry":{"type":"Point","coordinates":[77.5847773,12.9507432]}},{"type":"Feature","properties":{"Place":"Cubbon Park "},"geometry":{"type":"Point","coordinates":[77.5951549,12.9779291]}},{"type":"Feature","properties":{"Place":"JP park"},"geometry":{"type":"Point","coordinates":[77.554699,13.032791]}},{"type":"Feature","properties":{"Place":"Bangalore Fort"},"geometry":{"type":"Point","coordinates":[77.5758862,12.9628018]}},{"type":"Feature","properties":{"Place":"Bangalore Palace"},"geometry":{"type":"Point","coordinates":[77.5890953,13.0035068]}},{"type":"Feature","properties":{"Place":"Mayo Hill"},"geometry":{"type":"Point","coordinates":[77.5945627,12.9715987]}},{"type":"Feature","properties":{"Place":"Kempe Gowda Watch towers"},"geometry":{"type":"Point","coordinates":[77.5945627,12.9715987]}},{"type":"Feature","properties":{"Place":"Sapper War Memorial"},"geometry":{"type":"Point","coordinates":[77.606862,12.9715602]}},{"type":"Feature","properties":{"Place":"Jawaharlal Nehru Planetarium"},"geometry":{"type":"Point","coordinates":[77.5896341,12.9848665]}},{"type":"Feature","properties":{"Place":"Vidhana Soudha"},"geometry":{"type":"Point","coordinates":[77.5912443,12.9796734]}},{"type":"Feature","properties":{"Place":"Attara Kacheri"},"geometry":{"type":"Point","coordinates":[77.5928624,12.9794506]}},{"type":"Feature","properties":{"Place":"Governmet Museum"},"geometry":{"type":"Point","coordinates":[77.5958609,12.974708]}},{"type":"Feature","properties":{"Place":"Kempe Gowda Museum"},"geometry":{"type":"Point","coordinates":[77.6105171,12.9740416]}},{"type":"Feature","properties":{"Place":"Visvesvaraya Industrial and Technological Museum"},"geometry":{"type":"Point","coordinates":[77.5965348,12.9750417]}},{"type":"Feature","properties":{"Place":"Nandi Hills"},"geometry":{"type":"Point","coordinates":[77.6834551,13.370154]}},{"type":"Feature","properties":{"Place":"National Gallery of Modern Art"},"geometry":{"type":"Point","coordinates":[77.58815,12.989705]}},{"type":"Feature","properties":{"Place":"Devanahalli Fort"},"geometry":{"type":"Point","coordinates":[77.7090517,13.2494611]}},{"type":"Feature","properties":{"Place":"Wonder La"},"geometry":{"type":"Point","coordinates":[77.4009409,12.8349095]}},{"type":"Feature","properties":{"Place":"ISKCON Temple, Rajajinagar"},"geometry":{"type":"Point","coordinates":[77.5511048,13.0102161]}},{"type":"Feature","properties":{"Place":"Bangalore Aquarium"},"geometry":{"type":"Point","coordinates":[77.5985397,12.9765148]}},{"type":"Feature","properties":{"Place":"Lumbini Gardens"},"geometry":{"type":"Point","coordinates":[77.6096254,13.0434124]}},{"type":"Feature","properties":{"Place":"St. Mary's Basilica"},"geometry":{"type":"Point","coordinates":[77.6044189,12.9843925]}},{"type":"Feature","properties":{"Place":"Bannerghatta National Park"},"geometry":{"type":"Point","coordinates":[77.5775256,12.8010043]}},{"type":"Feature","properties":{"Place":"Innovative Film City"},"geometry":{"type":"Point","coordinates":[77.3979797,12.8029626]}},{"type":"Feature","properties":{"Place":"Nageshvara Temple, Begur"},"geometry":{"type":"Point","coordinates":[77.6263033,12.8767161]}},{"type":"Feature","properties":{"Place":"Dharmaraya Swamy Temple "},"geometry":{"type":"Point","coordinates":[77.5836466,12.965507]}},{"type":"Feature","properties":{"Place":"Ranganathaswamy temple"},"geometry":{"type":"Point","coordinates":[77.5505532,12.9952125]}},{"type":"Feature","properties":{"Place":"Halasuru Someshwara Temple "},"geometry":{"type":"Point","coordinates":[77.6240616,12.9755805]}},{"type":"Feature","properties":{"Place":"Gavi Gangadhareshwara Temple"},"geometry":{"type":"Point","coordinates":[77.5629406,12.9481464]}},{"type":"Feature","properties":{"Place":"ISKCON Temple, Vaikuntha Hills"},"geometry":{"type":"Point","coordinates":[77.5487978,12.8924267]}},{"type":"Feature","properties":{"Place":"Brigade Road"},"geometry":{"type":"Point","coordinates":[77.6068996,12.9709909]}},{"type":"Feature","properties":{"Place":"Commercial Street"},"geometry":{"type":"Point","coordinates":[77.6083485,12.9821895]}},{"type":"Feature","properties":{"Place":"MG Road"},"geometry":{"type":"Point","coordinates":[77.609448,12.9746983]}},{"type":"Feature","properties":{"Place":"Chickpet"},"geometry":{"type":"Point","coordinates":[77.5763139,12.9709232]}},{"type":"Feature","properties":{"Place":"Mantri Square"},"geometry":{"type":"Point","coordinates":[77.5711719,12.9916302]}},{"type":"Feature","properties":{"Place":"HAL Aerospace Museum"},"geometry":{"type":"Point","coordinates":[77.6809058,12.954655]}}]}